,Code,Description,Airport,City,State,lat,lon,latlon,City_State
0,10135,"Allentown/Bethlehem/Easton, PA: Lehigh Valley International",Lehigh Valley International,Allentown/Bethlehem/Easton,PA,40.6516504,-75.4347461,"(40.651650399999994, -75.434746099999984)",Allentown/Bethlehem/Easton (PA)
1,10136,"Abilene, TX: Abilene Regional",Abilene Regional,Abilene,TX,32.4487364,-99.7331439,"(32.448736400000001, -99.733143900000002)",Abilene (TX)
2,10140,"Albuquerque, NM: Albuquerque International Sunport",Albuquerque International Sunport,Albuquerque,NM,35.0433333,-106.6129085,"(35.0433333, -106.6129085)",Albuquerque (NM)
3,10141,"Aberdeen, SD: Aberdeen Regional",Aberdeen Regional,Aberdeen,SD,45.4534583,-98.4177261,"(45.453458300000001, -98.417726099999996)",Aberdeen (SD)
4,10146,"Albany, GA: Southwest Georgia Regional",Southwest Georgia Regional,Albany,GA,31.5356711,-84.1939049,"(31.535671100000002, -84.193904900000007)",Albany (GA)
5,10154,"Nantucket, MA: Nantucket Memorial",Nantucket Memorial,Nantucket,MA,41.2569516,-70.0637506,"(41.256951600000001, -70.063750599999992)",Nantucket (MA)
6,10155,"Waco, TX: Waco Regional",Waco Regional,Waco,TX,31.6086462,-97.2226498,"(31.608646199999999, -97.222649799999999)",Waco (TX)
7,10157,"Arcata/Eureka, CA: Arcata",Arcata,Arcata/Eureka,CA,40.8665166,-124.0828396,"(40.866516600000004, -124.0828396)",Arcata/Eureka (CA)
8,10158,"Atlantic City, NJ: Atlantic City International",Atlantic City International,Atlantic City,NJ,39.4513116,-74.5721964,"(39.451311600000004, -74.57219640000001)",Atlantic City (NJ)
9,10165,"Adak Island, AK: Adak",Adak,Adak Island,AK,51.88,-176.6580556,"(51.880000000000003, -176.65805559999998)",Adak Island (AK)
10,10170,"Kodiak, AK: Kodiak Airport",Kodiak Airport,Kodiak,AK,57.7543782,-152.51473,"(57.754378199999998, -152.51473000000001)",Kodiak (AK)
11,10185,"Alexandria, LA: Alexandria International",Alexandria International,Alexandria,LA,31.3267812,-92.5472399,"(31.326781199999999, -92.547239900000008)",Alexandria (LA)
12,10208,"Augusta, GA: Augusta Regional at Bush Field",Augusta Regional at Bush Field,Augusta,GA,33.4734978,-82.0105148,"(33.473497799999997, -82.010514799999996)",Augusta (GA)
13,10245,"King Salmon, AK: King Salmon Airport",King Salmon Airport,King Salmon,AK,58.6883251,-156.661351,"(58.688325100000007, -156.661351)",King Salmon (AK)
14,10257,"Albany, NY: Albany International",Albany International,Albany,NY,42.6525793,-73.7562317,"(42.652579299999992, -73.756231700000001)",Albany (NY)
15,10268,"Waterloo, IA: Waterloo Regional",Waterloo Regional,Waterloo,IA,42.492786,-92.3425775,"(42.492785999999995, -92.342577500000004)",Waterloo (IA)
16,10279,"Amarillo, TX: Rick Husband Amarillo International",Rick Husband Amarillo International,Amarillo,TX,35.2219971,-101.8312969,"(35.221997100000003, -101.8312969)",Amarillo (TX)
17,10299,"Anchorage, AK: Ted Stevens Anchorage International",Ted Stevens Anchorage International,Anchorage,AK,61.2180556,-149.9002778,"(61.2180556, -149.90027780000003)",Anchorage (AK)
18,10333,"Alpena, MI: Alpena County Regional",Alpena County Regional,Alpena,MI,45.0616794,-83.4327528,"(45.061679400000003, -83.432752799999989)",Alpena (MI)
19,10372,"Aspen, CO: Aspen Pitkin County Sardy Field",Aspen Pitkin County Sardy Field,Aspen,CO,39.1910983,-106.8175387,"(39.191098299999993, -106.81753870000001)",Aspen (CO)
20,10397,"Atlanta, GA: Hartsfield-Jackson Atlanta International",Hartsfield-Jackson Atlanta International,Atlanta,GA,33.7489954,-84.3879824,"(33.748995399999998, -84.387982399999999)",Atlanta (GA)
21,10408,"Appleton, WI: Appleton International",Appleton International,Appleton,WI,44.2619309,-88.4153847,"(44.261930900000003, -88.415384700000004)",Appleton (WI)
22,10423,"Austin, TX: Austin - Bergstrom International",Austin - Bergstrom International,Austin,TX,30.267153,-97.7430608,"(30.267153000000004, -97.743060799999995)",Austin (TX)
23,10431,"Asheville, NC: Asheville Regional",Asheville Regional,Asheville,NC,35.5950581,-82.5514869,"(35.595058100000003, -82.5514869)",Asheville (NC)
24,10434,"Scranton/Wilkes-Barre, PA: Wilkes Barre Scranton International",Wilkes Barre Scranton International,Scranton/Wilkes-Barre,PA,41.408969,-75.6624122,"(41.408968999999999, -75.662412199999991)",Scranton/Wilkes-Barre (PA)
25,10469,"Kalamazoo, MI: Kalamazoo/Battle Creek International",Kalamazoo/Battle Creek International,Kalamazoo,MI,42.2917069,-85.5872286,"(42.291706899999994, -85.587228600000003)",Kalamazoo (MI)
26,10529,"Hartford, CT: Bradley International",Bradley International,Hartford,CT,41.7637111,-72.6850932,"(41.763711100000002, -72.685093199999997)",Hartford (CT)
27,10551,"Bethel, AK: Bethel Airport",Bethel Airport,Bethel,AK,60.7922222,-161.7558333,"(60.792222200000005, -161.75583330000001)",Bethel (AK)
28,10558,"Scottsbluff, NE: Western Neb. Regional/William B. Heilig Field",Western Neb. Regional/William B. Heilig Field,Scottsbluff,NE,41.8735461,-103.5950216,"(41.873546099999999, -103.5950216)",Scottsbluff (NE)
29,10561,"Bakersfield, CA: Meadows Field",Meadows Field,Bakersfield,CA,35.4329123,-119.056618,"(35.432912299999998, -119.056618)",Bakersfield (CA)
30,10577,"Binghamton, NY: Greater Binghamton/Edwin A. Link Field",Greater Binghamton/Edwin A. Link Field,Binghamton,NY,42.2081084,-75.9820633,"(42.2081084, -75.982063299999993)",Binghamton (NY)
31,10581,"Bangor, ME: Bangor International",Bangor International,Bangor,ME,44.8079749,-68.8166829,"(44.807974899999998, -68.816682900000004)",Bangor (ME)
32,10599,"Birmingham, AL: Birmingham-Shuttlesworth International",Birmingham-Shuttlesworth International,Birmingham,AL,33.5624269,-86.754126,"(33.562426899999998, -86.754125999999999)",Birmingham (AL)
33,10620,"Billings, MT: Billings Logan International",Billings Logan International,Billings,MT,45.8037379,-108.5372138,"(45.803737899999994, -108.5372138)",Billings (MT)
34,10627,"Bismarck/Mandan, ND: Bismarck Municipal",Bismarck Municipal,Bismarck/Mandan,ND,46.775111,-100.7573875,"(46.775110999999995, -100.75738749999999)",Bismarck/Mandan (ND)
35,10631,"Bemidji, MN: Bemidji Regional",Bemidji Regional,Bemidji,MN,47.5092442,-94.9329041,"(47.509244200000005, -94.932904100000002)",Bemidji (MN)
36,10666,"Bellingham, WA: Bellingham International",Bellingham International,Bellingham,WA,48.7955792,-122.5330551,"(48.795579199999999, -122.5330551)",Bellingham (WA)
37,10685,"Bloomington/Normal, IL: Central Illinois Regional",Central Illinois Regional,Bloomington/Normal,IL,40.4829137,-88.914102,"(40.482913700000005, -88.914102)",Bloomington/Normal (IL)
38,10693,"Nashville, TN: Nashville International",Nashville International,Nashville,TN,36.1626638,-86.7816016,"(36.162663799999997, -86.781601599999988)",Nashville (TN)
39,10713,"Boise, ID: Boise Air Terminal",Boise Air Terminal,Boise,ID,43.6187102,-116.2146068,"(43.618710200000002, -116.2146068)",Boise (ID)
40,10721,"Boston, MA: Logan International",Logan International,Boston,MA,42.3600825,-71.0588801,"(42.360082500000004, -71.058880099999996)",Boston (MA)
41,10728,"Beaumont/Port Arthur, TX: Jack Brooks Regional",Jack Brooks Regional,Beaumont/Port Arthur,TX,29.878116,-93.9405549,"(29.878115999999999, -93.940554900000009)",Beaumont/Port Arthur (TX)
42,10731,"Brunswick, GA: Brunswick Golden Isles",Brunswick Golden Isles,Brunswick,GA,31.1499528,-81.4914894,"(31.149952799999998, -81.491489400000006)",Brunswick (GA)
43,10732,"Aguadilla, PR: Rafael Hernandez",Rafael Hernandez,Aguadilla,PR,18.4274454,-67.1540698,"(18.4274454, -67.154069800000002)",Aguadilla (PR)
44,10739,"Brainerd, MN: Brainerd Lakes Regional",Brainerd Lakes Regional,Brainerd,MN,46.3526733,-94.2020084,"(46.352673299999992, -94.202008399999997)",Brainerd (MN)
45,10747,"Brownsville, TX: Brownsville South Padre Island International",Brownsville South Padre Island International,Brownsville,TX,25.9017472,-97.4974838,"(25.901747199999999, -97.497483799999998)",Brownsville (TX)
46,10754,"Barrow, AK: Wiley Post/Will Rogers Memorial",Wiley Post/Will Rogers Memorial,Barrow,AK,71.2905556,-156.7886111,"(71.290555600000005, -156.7886111)",Barrow (AK)
47,10779,"Butte, MT: Bert Mooney",Bert Mooney,Butte,MT,46.0038232,-112.5347776,"(46.003823199999999, -112.53477759999998)",Butte (MT)
48,10781,"Baton Rouge, LA: Baton Rouge Metropolitan/Ryan Field",Baton Rouge Metropolitan/Ryan Field,Baton Rouge,LA,30.4582829,-91.1403196,"(30.458282899999997, -91.140319599999998)",Baton Rouge (LA)
49,10785,"Burlington, VT: Burlington International",Burlington International,Burlington,VT,44.4758825,-73.212072,"(44.475882500000004, -73.212071999999992)",Burlington (VT)
50,10792,"Buffalo, NY: Buffalo Niagara International",Buffalo Niagara International,Buffalo,NY,42.8864468,-78.8783689,"(42.886446800000002, -78.878368899999998)",Buffalo (NY)
51,10800,"Burbank, CA: Bob Hope",Bob Hope,Burbank,CA,34.1808392,-118.3089661,"(34.180839200000008, -118.30896609999998)",Burbank (CA)
52,10821,"Baltimore, MD: Baltimore/Washington International Thurgood Marshall",Baltimore/Washington International Thurgood Marshall,Baltimore,MD,39.2903848,-76.6121893,"(39.290384799999998, -76.612189299999997)",Baltimore (MD)
53,10849,"Bozeman, MT: Bozeman Yellowstone International",Bozeman Yellowstone International,Bozeman,MT,45.77746,-111.160161,"(45.777459999999998, -111.16016100000002)",Bozeman (MT)
54,10868,"Columbia, SC: Columbia Metropolitan",Columbia Metropolitan,Columbia,SC,34.0007104,-81.0348144,"(34.000710400000003, -81.034814400000002)",Columbia (SC)
55,10874,"Akron, OH: Akron-Canton Regional",Akron-Canton Regional,Akron,OH,40.914615,-81.436672,"(40.914615000000005, -81.436672000000002)",Akron (OH)
56,10918,"Cedar City, UT: Cedar City Regional",Cedar City Regional,Cedar City,UT,37.6993793,-113.0927218,"(37.699379299999997, -113.09272179999999)",Cedar City (UT)
57,10926,"Cordova, AK: Merle K Mudhole Smith",Merle K Mudhole Smith,Cordova,AK,60.4934354,-145.4757287,"(60.493435399999996, -145.47572869999999)",Cordova (AK)
58,10980,"Chattanooga, TN: Lovell Field",Lovell Field,Chattanooga,TN,35.0357067,-85.2016567,"(35.035706700000006, -85.201656700000001)",Chattanooga (TN)
59,10990,"Charlottesville, VA: Charlottesville Albemarle",Charlottesville Albemarle,Charlottesville,VA,38.0293059,-78.4766781,"(38.029305900000004, -78.476678100000001)",Charlottesville (VA)
60,10994,"Charleston, SC: Charleston AFB/International",Charleston AFB/International,Charleston,SC,32.8942676,-80.038159,"(32.894267600000006, -80.038158999999993)",Charleston (SC)
61,11003,"Cedar Rapids/Iowa City, IA: The Eastern Iowa",The Eastern Iowa,Cedar Rapids/Iowa City,IA,41.8863861,-91.7069754,"(41.886386100000003, -91.706975400000005)",Cedar Rapids/Iowa City (IA)
62,11013,"Sault Ste. Marie, MI: Chippewa County International",Chippewa County International,Sault Ste. Marie,MI,46.2577577,-84.4744174,"(46.257757700000006, -84.474417400000007)",Sault Ste. Marie (MI)
63,11042,"Cleveland, OH: Cleveland-Hopkins International",Cleveland-Hopkins International,Cleveland,OH,41.49932,-81.6943605,"(41.499320000000004, -81.694360500000002)",Cleveland (OH)
64,11049,"College Station/Bryan, TX: Easterwood Field",Easterwood Field,College Station/Bryan,TX,30.627977,-96.3344068,"(30.627977000000001, -96.334406799999996)",College Station/Bryan (TX)
65,11057,"Charlotte, NC: Charlotte Douglas International",Charlotte Douglas International,Charlotte,NC,35.2270869,-80.8431267,"(35.227086900000003, -80.843126699999999)",Charlotte (NC)
66,11066,"Columbus, OH: Port Columbus International",Port Columbus International,Columbus,OH,39.9611755,-82.9987942,"(39.961175500000003, -82.998794200000006)",Columbus (OH)
67,11067,"Champaign/Urbana, IL: University of Illinois/Willard",University of Illinois/Willard,Champaign/Urbana,IL,40.1105875,-88.2072697,"(40.110587500000001, -88.207269699999998)",Champaign/Urbana (IL)
68,11076,"Hancock/Houghton, MI: Houghton County Memorial",Houghton County Memorial,Hancock/Houghton,MI,47.1268714,-88.5809563,"(47.126871399999999, -88.580956299999997)",Hancock/Houghton (MI)
69,11097,"Cody, WY: Yellowstone Regional",Yellowstone Regional,Cody,WY,44.5263422,-109.0565308,"(44.526342200000002, -109.05653079999999)",Cody (WY)
70,11109,"Colorado Springs, CO: City of Colorado Springs Municipal",City of Colorado Springs Municipal,Colorado Springs,CO,38.8338816,-104.8213634,"(38.833881599999998, -104.82136340000001)",Colorado Springs (CO)
71,11111,"Columbia, MO: Columbia Regional",Columbia Regional,Columbia,MO,38.9517053,-92.3340724,"(38.951705299999993, -92.334072400000011)",Columbia (MO)
72,11122,"Casper, WY: Casper/Natrona County International",Casper/Natrona County International,Casper,WY,42.866632,-106.313081,"(42.866632000000003, -106.31308100000001)",Casper (WY)
73,11140,"Corpus Christi, TX: Corpus Christi International",Corpus Christi International,Corpus Christi,TX,27.8005828,-97.396381,"(27.800582799999997, -97.396381000000005)",Corpus Christi (TX)
74,11146,"Charleston/Dunbar, WV: Yeager",Yeager,Charleston/Dunbar,WV,38.3498195,-81.6326234,"(38.349819500000002, -81.6326234)",Charleston/Dunbar (WV)
75,11150,"Columbus, GA: Columbus Airport",Columbus Airport,Columbus,GA,32.4609764,-84.9877094,"(32.4609764, -84.9877094)",Columbus (GA)
76,11193,"Cincinnati, OH: Cincinnati/Northern Kentucky International",Cincinnati/Northern Kentucky International,Cincinnati,OH,39.1031182,-84.5120196,"(39.103118200000004, -84.512019600000002)",Cincinnati (OH)
77,11203,"Mosinee, WI: Central Wisconsin",Central Wisconsin,Mosinee,WI,44.7930232,-89.7031784,"(44.7930232, -89.703178400000013)",Mosinee (WI)
78,11252,"Daytona Beach, FL: Daytona Beach International",Daytona Beach International,Daytona Beach,FL,29.2108147,-81.0228331,"(29.2108147, -81.022833099999986)",Daytona Beach (FL)
79,11259,"Dallas, TX: Dallas Love Field",Dallas Love Field,Dallas,TX,32.7766642,-96.7969879,"(32.776664199999999, -96.796987900000005)",Dallas (TX)
80,11267,"Dayton, OH: James M Cox/Dayton International",James M Cox/Dayton International,Dayton,OH,39.9025242,-84.2217719,"(39.902524200000002, -84.221771900000007)",Dayton (OH)
81,11274,"Dubuque, IA: Dubuque Regional",Dubuque Regional,Dubuque,IA,42.3970919,-90.7056061,"(42.397091899999999, -90.705606099999997)",Dubuque (IA)
82,11278,"Washington, DC: Ronald Reagan Washington National",Ronald Reagan Washington National,Washington,DC,38.851242,-77.0402315,"(38.851241999999999, -77.04023149999999)",Washington (DC) [R.Reagan]
83,11292,"Denver, CO: Denver International",Denver International,Denver,CO,39.8560963,-104.6737376,"(39.856096299999997, -104.6737376)",Denver (CO)
84,11298,"Dallas/Fort Worth, TX: Dallas/Fort Worth International",Dallas/Fort Worth International,Dallas/Fort Worth,TX,32.8998091,-97.0403352,"(32.899809099999999, -97.040335200000001)",Dallas/Fort Worth (TX)
85,11308,"Dothan, AL: Dothan Regional",Dothan Regional,Dothan,AL,31.3216557,-85.4524326,"(31.321655699999997, -85.452432599999995)",Dothan (AL)
86,11315,"Dickinson, ND: Dickinson - Theodore Roosevelt Regional",Dickinson - Theodore Roosevelt Regional,Dickinson,ND,46.8016664,-102.7928843,"(46.801666400000002, -102.7928843)",Dickinson (ND)
87,11336,"Dillingham, AK: Dillingham Airport",Dillingham Airport,Dillingham,AK,59.045941,-158.5044336,"(59.045941000000006, -158.5044336)",Dillingham (AK)
88,11337,"Duluth, MN: Duluth International",Duluth International,Duluth,MN,46.8386505,-92.1800294,"(46.8386505, -92.180029400000009)",Duluth (MN)
89,11413,"Durango, CO: Durango La Plata County",Durango La Plata County,Durango,CO,37.27528,-107.8800667,"(37.275280000000002, -107.88006670000001)",Durango (CO)
90,11423,"Des Moines, IA: Des Moines International",Des Moines International,Des Moines,IA,41.6005448,-93.6091064,"(41.600544799999994, -93.609106400000002)",Des Moines (IA)
91,11433,"Detroit, MI: Detroit Metro Wayne County",Detroit Metro Wayne County,Detroit,MI,42.331427,-83.0457538,"(42.331427000000005, -83.0457538)",Detroit (MI)
92,11447,"Devils Lake, ND: Devils Lake Regional",Devils Lake Regional,Devils Lake,ND,48.112779,-98.8651202,"(48.112778999999996, -98.865120200000007)",Devils Lake (ND)
93,11471,"Eau Claire, WI: Chippewa Valley Regional",Chippewa Valley Regional,Eau Claire,WI,44.811349,-91.4984941,"(44.811349, -91.498494100000002)",Eau Claire (WI)
94,11481,"Panama City, FL: Northwest Florida Beaches International",Northwest Florida Beaches International,Panama City,FL,30.1588129,-85.6602058,"(30.158812899999997, -85.6602058)",Panama City (FL)
95,11495,"Houston, TX: Ellington",Ellington,Houston,TX,29.7604267,-95.3698028,"(29.7604267, -95.369802799999988)",Houston (TX) [Ell]
96,11503,"Eagle, CO: Eagle County Regional",Eagle County Regional,Eagle,CO,39.6552634,-106.8286507,"(39.655263399999995, -106.8286507)",Eagle (CO)
97,11525,"Elko, NV: Elko Regional",Elko Regional,Elko,NV,40.8278188,-115.786212,"(40.827818799999996, -115.78621200000001)",Elko (NV)
98,11537,"Elmira/Corning, NY: Elmira/Corning Regional",Elmira/Corning Regional,Elmira/Corning,NY,42.15987,-76.893638,"(42.159869999999998, -76.893637999999996)",Elmira/Corning (NY)
99,11540,"El Paso, TX: El Paso International",El Paso International,El Paso,TX,31.8053354,-106.3824345,"(31.805335400000001, -106.3824345)",El Paso (TX)
100,11577,"Erie, PA: Erie International/Tom Ridge Field",Erie International/Tom Ridge Field,Erie,PA,42.083016,-80.181827,"(42.083016000000001, -80.181826999999998)",Erie (PA)
101,11587,"Escanaba, MI: Delta County",Delta County,Escanaba,MI,38.8531357,-107.763621,"(38.853135700000003, -107.763621)",Escanaba (MI)
102,11603,"Eugene, OR: Mahlon Sweet Field",Mahlon Sweet Field,Eugene,OR,44.1217811,-123.2159003,"(44.1217811, -123.2159003)",Eugene (OR)
103,11612,"Evansville, IN: Evansville Regional",Evansville Regional,Evansville,IN,38.0459587,-87.5276758,"(38.045958700000007, -87.527675799999997)",Evansville (IN)
104,11617,"New Bern/Morehead/Beaufort, NC: Coastal Carolina Regional",Coastal Carolina Regional,New Bern/Morehead/Beaufort,NC,35.0743313,-77.0427951,"(35.074331299999997, -77.042795099999992)",New Bern/Morehead/Beaufort (NC)
105,11618,"Newark, NJ: Newark Liberty International",Newark Liberty International,Newark,NJ,40.6895314,-74.1744624,"(40.6895314, -74.17446240000001)",Newark (NJ)
106,11624,"Key West, FL: Key West International",Key West International,Key West,FL,24.556987,-81.757397,"(24.556986999999999, -81.757396999999997)",Key West (FL)
107,11630,"Fairbanks, AK: Fairbanks International",Fairbanks International,Fairbanks,AK,64.8164163,-147.8635169,"(64.8164163, -147.86351690000001)",Fairbanks (AK)
108,11637,"Fargo, ND: Hector International",Hector International,Fargo,ND,46.9181473,-96.8183039,"(46.918147300000001, -96.818303900000004)",Fargo (ND)
109,11638,"Fresno, CA: Fresno Yosemite International",Fresno Yosemite International,Fresno,CA,36.7758493,-119.7181083,"(36.775849299999997, -119.71810829999998)",Fresno (CA)
110,11641,"Fayetteville, NC: Fayetteville Regional/Grannis Field",Fayetteville Regional/Grannis Field,Fayetteville,NC,34.9903054,-78.8870574,"(34.990305399999997, -78.887057400000003)",Fayetteville (NC)
111,11648,"Kalispell, MT: Glacier Park International",Glacier Park International,Kalispell,MT,48.3099055,-114.2545723,"(48.309905499999999, -114.25457230000001)",Kalispell (MT)
112,11695,"Flagstaff, AZ: Flagstaff Pulliam",Flagstaff Pulliam,Flagstaff,AZ,35.1359051,-111.676476,"(35.135905100000002, -111.67647599999999)",Flagstaff (AZ)
113,11697,"Fort Lauderdale, FL: Fort Lauderdale-Hollywood International",Fort Lauderdale-Hollywood International,Fort Lauderdale,FL,26.0742344,-80.1506022,"(26.074234399999998, -80.150602199999994)",Fort Lauderdale (FL)
114,11721,"Flint, MI: Bishop International",Bishop International,Flint,MI,43.0125274,-83.6874562,"(43.012527399999996, -83.6874562)",Flint (MI)
115,11775,"Sioux Falls, SD: Joe Foss Field",Joe Foss Field,Sioux Falls,SD,43.580268,-96.731188,"(43.580267999999997, -96.731188000000003)",Sioux Falls (SD)
116,11778,"Fort Smith, AR: Fort Smith Regional",Fort Smith Regional,Fort Smith,AR,35.3360061,-94.3668408,"(35.336006099999999, -94.366840799999991)",Fort Smith (AR)
117,11823,"Fort Wayne, IN: Fort Wayne International",Fort Wayne International,Fort Wayne,IN,40.9864749,-85.1879222,"(40.986474900000005, -85.187922200000003)",Fort Wayne (IN)
118,11865,"Gillette, WY: Gillette Campbell County",Gillette Campbell County,Gillette,WY,44.2910915,-105.5022205,"(44.2910915, -105.50222050000001)",Gillette (WY)
119,11867,"Garden City, KS: Garden City Regional",Garden City Regional,Garden City,KS,37.9268913,-100.7198703,"(37.926891299999994, -100.7198703)",Garden City (KS)
120,11884,"Spokane, WA: Spokane International",Spokane International,Spokane,WA,47.6217478,-117.534812,"(47.621747799999994, -117.53481200000002)",Spokane (WA)
121,11898,"Grand Forks, ND: Grand Forks International",Grand Forks International,Grand Forks,ND,47.942861,-97.176582,"(47.942861000000001, -97.176581999999996)",Grand Forks (ND)
122,11905,"Longview, TX: East Texas Regional",East Texas Regional,Longview,TX,32.3877112,-94.719144,"(32.387711199999998, -94.719144)",Longview (TX)
123,11921,"Grand Junction, CO: Grand Junction Regional",Grand Junction Regional,Grand Junction,CO,39.1245955,-108.5312962,"(39.124595499999998, -108.5312962)",Grand Junction (CO)
124,11953,"Gainesville, FL: Gainesville Regional",Gainesville Regional,Gainesville,FL,29.6516344,-82.3248262,"(29.651634399999999, -82.324826200000004)",Gainesville (FL)
125,11973,"Gulfport/Biloxi, MS: Gulfport-Biloxi International",Gulfport-Biloxi International,Gulfport/Biloxi,MS,30.413366,-89.072955,"(30.413365999999996, -89.072955000000007)",Gulfport/Biloxi (MS)
126,11977,"Green Bay, WI: Green Bay Austin Straubel International",Green Bay Austin Straubel International,Green Bay,WI,44.4923615,-88.1271314,"(44.492361500000001, -88.127131399999996)",Green Bay (WI)
127,11980,"Grand Island, NE: Central Nebraska Regional",Central Nebraska Regional,Grand Island,NE,40.97025,-98.3182995,"(40.97025, -98.318299499999995)",Grand Island (NE)
128,11982,"Killeen, TX: Robert Gray AAF",Robert Gray AAF,Killeen,TX,31.0615206,-97.8208843,"(31.061520600000001, -97.820884300000003)",Killeen (TX)
129,11986,"Grand Rapids, MI: Gerald R. Ford International",Gerald R. Ford International,Grand Rapids,MI,42.8846633,-85.5248434,"(42.8846633, -85.524843399999995)",Grand Rapids (MI)
130,11995,"Greensboro/High Point, NC: Piedmont Triad International",Piedmont Triad International,Greensboro/High Point,NC,36.1043671,-79.9351805,"(36.104367100000005, -79.935180500000001)",Greensboro/High Point (NC)
131,11996,"Greer, SC: Greenville-Spartanburg International",Greenville-Spartanburg International,Greer,SC,34.8959008,-82.2172338,"(34.8959008, -82.217233800000002)",Greer (SC)
132,11997,"Gustavus, AK: Gustavus Airport",Gustavus Airport,Gustavus,AK,58.422469,-135.7030422,"(58.422468999999992, -135.70304219999997)",Gustavus (AK)
133,12003,"Great Falls, MT: Great Falls International",Great Falls International,Great Falls,MT,47.4825016,-111.3566299,"(47.482501599999999, -111.35662990000002)",Great Falls (MT)
134,12007,"Columbus, MS: Golden Triangle Regional",Golden Triangle Regional,Columbus,MS,33.4516041,-88.587603,"(33.451604100000004, -88.587603000000001)",Columbus (MS)
135,12012,"Gunnison, CO: Gunnison-Crested Butte Regional",Gunnison-Crested Butte Regional,Gunnison,CO,38.5372495,-106.9353988,"(38.537249500000001, -106.93539879999999)",Gunnison (CO)
136,12016,"Guam, TT: Guam International",Guam International,Guam,TT,13.4856448,144.8001467,"(13.485644800000001, 144.8001467)",Guam (TT)
137,12094,"Hayden, CO: Yampa Valley",Yampa Valley,Hayden,CO,39.3747061,-105.7671561,"(39.374706099999997, -105.76715609999999)",Hayden (CO)
138,12129,"Hibbing, MN: Range Regional",Range Regional,Hibbing,MN,47.3921561,-92.8421461,"(47.392156100000001, -92.842146099999994)",Hibbing (MN)
139,12156,"Helena, MT: Helena Regional",Helena Regional,Helena,MT,46.5883707,-112.0245054,"(46.588370700000006, -112.0245054)",Helena (MT)
140,12173,"Honolulu, HI: Honolulu International",Honolulu International,Honolulu,HI,21.3245132,-157.9250736,"(21.324513199999998, -157.92507359999999)",Honolulu (HI)
141,12177,"Hobbs, NM: Lea County Regional",Lea County Regional,Hobbs,NM,32.7026116,-103.1360403,"(32.702611600000004, -103.13604029999999)",Hobbs (NM)
142,12191,"Houston, TX: William P Hobby",William P Hobby,Houston,TX,29.6529506,-95.2766507,"(29.6529506, -95.276650700000005)",Houston (TX) [WP.Hobby]
143,12197,"White Plains, NY: Westchester County",Westchester County,White Plains,NY,41.1220194,-73.7948516,"(41.122019399999999, -73.794851600000001)",White Plains (NY)
144,12206,"Harlingen/San Benito, TX: Valley International",Valley International,Harlingen/San Benito,TX,26.2239796,-97.6618154,"(26.223979600000003, -97.661815400000009)",Harlingen/San Benito (TX)
145,12217,"Huntsville, AL: Huntsville International-Carl T Jones Field",Huntsville International-Carl T Jones Field,Huntsville,AL,34.6403329,-86.7756899,"(34.640332899999997, -86.775689900000003)",Huntsville (AL)
146,12250,"Hyannis, MA: Barnstable Municipal-Boardman/Polando Field",Barnstable Municipal-Boardman/Polando Field,Hyannis,MA,41.6673379,-70.2847445,"(41.667337899999993, -70.284744499999988)",Hyannis (MA)
147,12255,"Hays, KS: Hays Regional",Hays Regional,Hays,KS,38.842222,-99.273167,"(38.842222, -99.273167000000001)",Hays (KS)
148,12264,"Washington, DC: Washington Dulles International",Washington Dulles International,Washington,DC,38.9531162,-77.4565388,"(38.953116200000004, -77.45653879999999)",Washington (DC) [W.Dulles]
149,12265,"Niagara Falls, NY: Niagara Falls International",Niagara Falls International,Niagara Falls,NY,43.1073749,-78.9445352,"(43.107374900000003, -78.944535200000004)",Niagara Falls (NY)
150,12266,"Houston, TX: George Bush Intercontinental/Houston",George Bush Intercontinental/Houston,Houston,TX,29.9902199,-95.3367827,"(29.990219899999996, -95.336782700000001)",Houston (TX) [G.Bush]
151,12278,"Wichita, KS: Wichita Dwight D Eisenhower National",Wichita Dwight D Eisenhower National,Wichita,KS,37.6508529,-97.4286988,"(37.650852899999997, -97.428698800000006)",Wichita (KS)
152,12280,"Idaho Falls, ID: Idaho Falls Regional",Idaho Falls Regional,Idaho Falls,ID,43.51511,-112.06788,"(43.51511, -112.06788)",Idaho Falls (ID)
153,12323,"Wilmington, NC: Wilmington International",Wilmington International,Wilmington,NC,34.266805,-77.9103607,"(34.266804999999998, -77.910360700000012)",Wilmington (NC)
154,12335,"Iron Mountain/Kingsfd, MI: Ford",Ford,Iron Mountain/Kingsfd,MI,45.8145175,-88.0546147,"(45.814517500000001, -88.054614700000002)",Iron Mountain/Kingsfd (MI)
155,12339,"Indianapolis, IN: Indianapolis International",Indianapolis International,Indianapolis,IN,39.7168593,-86.2955952,"(39.716859299999996, -86.295595200000008)",Indianapolis (IN)
156,12343,"International Falls, MN: Falls International Einarson Field",Falls International Einarson Field,International Falls,MN,48.5663926,-93.397607,"(48.5663926, -93.397606999999994)",International Falls (MN)
157,12389,"Williston, ND: Sloulin Field International",Sloulin Field International,Williston,ND,48.1773699,-103.6367331,"(48.177369899999995, -103.63673309999999)",Williston (ND)
158,12391,"Islip, NY: Long Island MacArthur",Long Island MacArthur,Islip,NY,40.7898451,-73.097568,"(40.789845100000001, -73.09756800000001)",Islip (NY)
159,12397,"Ithaca/Cortland, NY: Ithaca Tompkins Regional",Ithaca Tompkins Regional,Ithaca/Cortland,NY,42.4906384,-76.4599412,"(42.490638399999995, -76.459941200000003)",Ithaca/Cortland (NY)
160,12402,"Hilo, HI: Hilo International",Hilo International,Hilo,HI,19.7188342,-155.0416866,"(19.7188342, -155.04168659999999)",Hilo (HI)
161,12441,"Jackson, WY: Jackson Hole",Jackson Hole,Jackson,WY,43.4799291,-110.7624282,"(43.4799291, -110.76242820000002)",Jackson (WY)
162,12448,"Jackson/Vicksburg, MS: Jackson Medgar Wiley Evers International",Jackson Medgar Wiley Evers International,Jackson/Vicksburg,MS,32.3122283,-90.0764217,"(32.312228300000001, -90.076421700000012)",Jackson/Vicksburg (MS)
163,12451,"Jacksonville, FL: Jacksonville International",Jacksonville International,Jacksonville,FL,30.4940713,-81.6879368,"(30.494071299999998, -81.687936800000003)",Jacksonville (FL)
164,12478,"New York, NY: John F. Kennedy International",John F. Kennedy International,New York,NY,40.6413111,-73.7781391,"(40.641311100000003, -73.77813909999999)",New York (NY) [JFK]
165,12511,"Joplin, MO: Joplin Regional",Joplin Regional,Joplin,MO,37.157353,-94.5015192,"(37.157353000000001, -94.501519200000004)",Joplin (MO)
166,12519,"Jamestown, ND: Jamestown Regional",Jamestown Regional,Jamestown,ND,46.9105438,-98.7084357,"(46.910543799999999, -98.70843570000001)",Jamestown (ND)
167,12523,"Juneau, AK: Juneau International",Juneau International,Juneau,AK,58.3579806,-134.5831791,"(58.357980599999998, -134.5831791)",Juneau (AK)
168,12758,"Kona, HI: Kona International Airport at Keahole",Kona International Airport at Keahole,Kona,HI,19.639994,-155.9969261,"(19.639994000000002, -155.9969261)",Kona (HI)
169,12819,"Ketchikan, AK: Ketchikan International",Ketchikan International,Ketchikan,AK,55.3554106,-131.7105604,"(55.355410600000006, -131.71056039999999)",Ketchikan (AK)
170,12884,"Lansing, MI: Capital Region International",Capital Region International,Lansing,MI,42.7750893,-84.5892334,"(42.775089299999998, -84.589233399999998)",Lansing (MI)
171,12888,"Laramie, WY: Laramie Regional",Laramie Regional,Laramie,WY,41.3201937,-105.6703447,"(41.320193700000004, -105.67034469999999)",Laramie (WY)
172,12889,"Las Vegas, NV: McCarran International",McCarran International,Las Vegas,NV,36.0839998,-115.1537389,"(36.083999799999994, -115.15373889999999)",Las Vegas (NV)
173,12891,"Lawton/Fort Sill, OK: Lawton-Fort Sill Regional",Lawton-Fort Sill Regional,Lawton/Fort Sill,OK,34.5726626,-98.4159133,"(34.572662600000001, -98.415913299999985)",Lawton/Fort Sill (OK)
174,12892,"Los Angeles, CA: Los Angeles International",Los Angeles International,Los Angeles,CA,33.9415889,-118.40853,"(33.941588899999999, -118.40853)",Los Angeles (CA)
175,12896,"Lubbock, TX: Lubbock Preston Smith International",Lubbock Preston Smith International,Lubbock,TX,33.6562701,-101.8209749,"(33.6562701, -101.82097490000001)",Lubbock (TX)
176,12898,"Latrobe, PA: Arnold Palmer Regional",Arnold Palmer Regional,Latrobe,PA,40.2738018,-79.4070821,"(40.273801800000001, -79.407082099999997)",Latrobe (PA)
177,12915,"Lake Charles, LA: Lake Charles Regional",Lake Charles Regional,Lake Charles,LA,30.1229972,-93.2211183,"(30.1229972, -93.221118300000001)",Lake Charles (LA)
178,12945,"Lexington, KY: Blue Grass",Blue Grass,Lexington,KY,41.5089194,-90.7659767,"(41.508919399999996, -90.765976699999996)",Lexington (KY)
179,12951,"Lafayette, LA: Lafayette Regional Paul Fournet Field",Lafayette Regional Paul Fournet Field,Lafayette,LA,30.2084779,-91.993286,"(30.208477899999998, -91.993285999999998)",Lafayette (LA)
180,12953,"New York, NY: LaGuardia",LaGuardia,New York,NY,40.7769271,-73.8739659,"(40.776927100000002, -73.873965900000016)",New York (NY) [Lag]
181,12954,"Long Beach, CA: Long Beach Airport",Long Beach Airport,Long Beach,CA,33.8182652,-118.1445416,"(33.818265199999999, -118.1445416)",Long Beach (CA)
182,12982,"Lihue, HI: Lihue Airport",Lihue Airport,Lihue,HI,21.9788489,-159.3437585,"(21.978848899999996, -159.34375850000001)",Lihue (HI)
183,12992,"Little Rock, AR: Bill and Hillary Clinton Nat Adams Field",Bill and Hillary Clinton Nat Adams Field,Little Rock,AR,34.7464809,-92.2895948,"(34.746480900000002, -92.289594800000003)",Little Rock (AR)
184,13029,"Lincoln, NE: Lincoln Airport",Lincoln Airport,Lincoln,NE,40.8469517,-96.7552229,"(40.846951700000005, -96.755222900000007)",Lincoln (NE)
185,13061,"Laredo, TX: Laredo International",Laredo International,Laredo,TX,27.5305671,-99.4803241,"(27.530567100000003, -99.48032409999999)",Laredo (TX)
186,13076,"La Crosse, WI: La Crosse Regional",La Crosse Regional,La Crosse,WI,43.8753299,-91.2635471,"(43.875329899999997, -91.263547099999997)",La Crosse (WI)
187,13127,"Lewiston, ID: Lewiston Nez Perce County",Lewiston Nez Perce County,Lewiston,ID,46.4004089,-117.0011889,"(46.400408899999995, -117.0011889)",Lewiston (ID)
188,13158,"Midland/Odessa, TX: Midland International",Midland International,Midland/Odessa,TX,31.9417386,-102.2047497,"(31.941738600000001, -102.20474969999999)",Midland/Odessa (TX)
189,13184,"Saginaw/Bay City/Midland, MI: MBS International",MBS International,Saginaw/Bay City/Midland,MI,43.5328989,-84.0850766,"(43.532898899999999, -84.085076599999994)",Saginaw/Bay City/Midland (MI)
190,13198,"Kansas City, MO: Kansas City International",Kansas City International,Kansas City,MO,39.3006427,-94.7125937,"(39.300642700000004, -94.712593699999999)",Kansas City (MO)
191,13204,"Orlando, FL: Orlando International",Orlando International,Orlando,FL,28.4311577,-81.308083,"(28.4311577, -81.308082999999996)",Orlando (FL)
192,13230,"Harrisburg, PA: Harrisburg International",Harrisburg International,Harrisburg,PA,40.1942375,-76.7576672,"(40.1942375, -76.7576672)",Harrisburg (PA)
193,13232,"Chicago, IL: Chicago Midway International",Chicago Midway International,Chicago,IL,41.7867759,-87.7521884,"(41.786775899999995, -87.752188400000009)",Chicago (IL) [Midway]
194,13241,"Meridian, MS: Key Field",Key Field,Meridian,MS,32.3311612,-88.7526547,"(32.331161199999997, -88.752654700000008)",Meridian (MS)
195,13244,"Memphis, TN: Memphis International",Memphis International,Memphis,TN,35.0420679,-89.9791729,"(35.042067899999999, -89.979172900000009)",Memphis (TN)
196,13256,"Mission/McAllen/Edinburg, TX: McAllen Miller International",McAllen Miller International,Mission/McAllen/Edinburg,TX,26.1807841,-98.2398433,"(26.1807841, -98.23984329999999)",Mission/McAllen/Edinburg (TX)
197,13264,"Medford, OR: Rogue Valley International - Medford",Rogue Valley International - Medford,Medford,OR,42.3684191,-122.8740066,"(42.368419099999997, -122.87400659999999)",Medford (OR)
198,13277,"Montgomery, AL: Montgomery Regional",Montgomery Regional,Montgomery,AL,32.3668052,-86.2999689,"(32.366805199999995, -86.299968899999996)",Montgomery (AL)
199,13290,"Manhattan/Ft. Riley, KS: Manhattan Regional",Manhattan Regional,Manhattan/Ft. Riley,KS,39.1371223,-96.6699273,"(39.137122300000001, -96.669927299999998)",Manhattan/Ft. Riley (KS)
200,13296,"Manchester, NH: Manchester-Boston Regional",Manchester-Boston Regional,Manchester,NH,42.929687,-71.4352177,"(42.929687000000001, -71.435217699999995)",Manchester (NH)
201,13303,"Miami, FL: Miami International",Miami International,Miami,FL,25.795865,-80.2870457,"(25.795864999999999, -80.287045700000007)",Miami (FL)
202,13342,"Milwaukee, WI: General Mitchell International",General Mitchell International,Milwaukee,WI,42.9475534,-87.896646,"(42.947553399999997, -87.89664599999999)",Milwaukee (WI)
203,13344,"Muskegon, MI: Muskegon County",Muskegon County,Muskegon,MI,43.294941,-86.1261055,"(43.294940999999994, -86.126105500000008)",Muskegon (MI)
204,13360,"Melbourne, FL: Melbourne International",Melbourne International,Melbourne,FL,28.0979886,-80.6312478,"(28.097988600000001, -80.631247799999997)",Melbourne (FL)
205,13367,"Moline, IL: Quad City International",Quad City International,Moline,IL,41.4496341,-90.5082706,"(41.449634100000004, -90.508270599999989)",Moline (IL)
206,13377,"Monroe, LA: Monroe Regional",Monroe Regional,Monroe,LA,32.5101466,-92.0436835,"(32.510146599999999, -92.0436835)",Monroe (LA)
207,13388,"Mammoth Lakes, CA: Mammoth Lakes Airport",Mammoth Lakes Airport,Mammoth Lakes,CA,37.6244629,-118.8388538,"(37.624462899999997, -118.8388538)",Mammoth Lakes (CA)
208,13422,"Mobile, AL: Mobile Regional",Mobile Regional,Mobile,AL,30.6813282,-88.2441408,"(30.681328199999999, -88.244140799999997)",Mobile (AL)
209,13433,"Minot, ND: Minot International",Minot International,Minot,ND,48.2559683,-101.2879102,"(48.255968299999999, -101.28791020000001)",Minot (ND)
210,13459,"Marquette, MI: Sawyer International",Sawyer International,Marquette,MI,46.3497071,-87.3874449,"(46.349707099999996, -87.387444900000006)",Marquette (MI)
211,13476,"Monterey, CA: Monterey Regional",Monterey Regional,Monterey,CA,36.588269,-121.8491091,"(36.588268999999997, -121.84910910000001)",Monterey (CA)
212,13485,"Madison, WI: Dane County Regional-Truax Field",Dane County Regional-Truax Field,Madison,WI,43.0730517,-89.4012302,"(43.073051700000008, -89.401230200000001)",Madison (WI)
213,13486,"Missoula, MT: Missoula International",Missoula International,Missoula,MT,46.9188306,-114.0837639,"(46.918830600000007, -114.08376389999999)",Missoula (MT)
214,13487,"Minneapolis, MN: Minneapolis-St Paul International",Minneapolis-St Paul International,Minneapolis,MN,44.8847554,-93.2222846,"(44.884755400000003, -93.222284599999995)",Minneapolis (MN)
215,13495,"New Orleans, LA: Louis Armstrong New Orleans International",Louis Armstrong New Orleans International,New Orleans,LA,29.9922012,-90.2590112,"(29.9922012, -90.259011200000003)",New Orleans (LA)
216,13502,"Montrose/Delta, CO: Montrose Regional",Montrose Regional,Montrose/Delta,CO,38.5026155,-107.89635,"(38.502615500000005, -107.89635)",Montrose/Delta (CO)
217,13541,"Martha's Vineyard, MA: Martha's Vineyard Airport",Martha's Vineyard Airport,Martha's Vineyard,MA,41.3894107,-70.6120544,"(41.389410699999999, -70.612054400000005)",Martha's Vineyard (MA)
218,13577,"Myrtle Beach, SC: Myrtle Beach International",Myrtle Beach International,Myrtle Beach,SC,33.6822019,-78.9278943,"(33.682201899999995, -78.927894299999991)",Myrtle Beach (SC)
219,13795,"Jacksonville/Camp Lejeune, NC: Albert J Ellis",Albert J Ellis,Jacksonville/Camp Lejeune,NC,34.8295521,-77.6109114,"(34.829552100000001, -77.610911400000006)",Jacksonville/Camp Lejeune (NC)
220,13796,"Oakland, CA: Metropolitan Oakland International",Metropolitan Oakland International,Oakland,CA,37.7125689,-122.2197428,"(37.712568900000001, -122.21974280000001)",Oakland (CA)
221,13830,"Kahului, HI: Kahului Airport",Kahului Airport,Kahului,HI,20.8967924,-156.4329379,"(20.896792399999999, -156.43293789999998)",Kahului (HI)
222,13851,"Oklahoma City, OK: Will Rogers World",Will Rogers World,Oklahoma City,OK,35.393056,-97.600556,"(35.393056000000001, -97.600556000000012)",Oklahoma City (OK)
223,13871,"Omaha, NE: Eppley Airfield",Eppley Airfield,Omaha,NE,41.299734,-95.8994865,"(41.299734000000001, -95.899486499999995)",Omaha (NE)
224,13873,"Nome, AK: Nome Airport",Nome Airport,Nome,AK,64.5099347,-165.4435152,"(64.509934700000002, -165.44351519999998)",Nome (AK)
225,13891,"Ontario, CA: Ontario International",Ontario International,Ontario,CA,34.0559781,-117.598057,"(34.055978100000004, -117.59805700000001)",Ontario (CA)
226,13930,"Chicago, IL: Chicago O'Hare International",Chicago O'Hare International,Chicago,IL,41.9741625,-87.9073214,"(41.974162499999998, -87.907321400000001)",Chicago (IL) [O'Hare]
227,13931,"Norfolk, VA: Norfolk International",Norfolk International,Norfolk,VA,36.8956837,-76.2000161,"(36.895683700000006, -76.200016099999999)",Norfolk (VA)
228,13933,"Worcester, MA: Worcester Regional",Worcester Regional,Worcester,MA,42.2680227,-71.8735112,"(42.268022700000003, -71.87351120000001)",Worcester (MA)
229,13964,"North Bend/Coos Bay, OR: Southwest Oregon Regional",Southwest Oregon Regional,North Bend/Coos Bay,OR,43.4194303,-124.2468795,"(43.419430299999995, -124.24687949999999)",North Bend/Coos Bay (OR)
230,13970,"Kotzebue, AK: Ralph Wien Memorial",Ralph Wien Memorial,Kotzebue,AK,66.892154,-162.601154,"(66.892154000000005, -162.60115400000001)",Kotzebue (AK)
231,14006,"Paducah, KY: Barkley Regional",Barkley Regional,Paducah,KY,37.0612439,-88.7675112,"(37.061243900000001, -88.767511200000001)",Paducah (KY)
232,14025,"Plattsburgh, NY: Plattsburgh International",Plattsburgh International,Plattsburgh,NY,44.6694407,-73.4722941,"(44.669440700000003, -73.472294099999999)",Plattsburgh (NY)
233,14027,"West Palm Beach/Palm Beach, FL: Palm Beach International",Palm Beach International,West Palm Beach/Palm Beach,FL,26.6857475,-80.0928165,"(26.685747499999998, -80.092816499999998)",West Palm Beach/Palm Beach (FL)
234,14057,"Portland, OR: Portland International",Portland International,Portland,OR,45.5897694,-122.5950942,"(45.589769399999994, -122.59509420000001)",Portland (OR)
235,14082,"Punta Gorda, FL: Punta Gorda Airport",Punta Gorda Airport,Punta Gorda,FL,26.9162084,-81.9977777,"(26.916208399999999, -81.9977777)",Punta Gorda (FL)
236,14098,"Newport News/Williamsburg, VA: Newport News/Williamsburg International",Newport News/Williamsburg International,Newport News/Williamsburg,VA,37.131667,-76.492778,"(37.131667, -76.492778000000001)",Newport News/Williamsburg (VA)
237,14100,"Philadelphia, PA: Philadelphia International",Philadelphia International,Philadelphia,PA,39.8743959,-75.2424229,"(39.874395899999996, -75.242422900000008)",Philadelphia (PA)
238,14107,"Phoenix, AZ: Phoenix Sky Harbor International",Phoenix Sky Harbor International,Phoenix,AZ,33.4372686,-112.0077881,"(33.437268599999996, -112.0077881)",Phoenix (AZ)
239,14108,"Peoria, IL: General Downing - Peoria International",General Downing - Peoria International,Peoria,IL,40.6666408,-89.6916264,"(40.666640799999996, -89.691626400000004)",Peoria (IL)
240,14109,"Hattiesburg/Laurel, MS: Hattiesburg-Laurel Regional",Hattiesburg-Laurel Regional,Hattiesburg/Laurel,MS,31.3271189,-89.2903392,"(31.327118900000002, -89.290339200000005)",Hattiesburg/Laurel (MS)
241,14113,"Pocatello, ID: Pocatello Regional",Pocatello Regional,Pocatello,ID,42.9057182,-112.5887461,"(42.905718200000003, -112.58874609999999)",Pocatello (ID)
242,14122,"Pittsburgh, PA: Pittsburgh International",Pittsburgh International,Pittsburgh,PA,40.4957722,-80.2413113,"(40.495772199999998, -80.241311300000007)",Pittsburgh (PA)
243,14150,"Pellston, MI: Pellston Regional Airport of Emmet County",Pellston Regional Airport of Emmet County,Pellston,MI,45.5714903,-84.7861834,"(45.571490300000001, -84.786183399999999)",Pellston (MI)
244,14193,"Pensacola, FL: Pensacola International",Pensacola International,Pensacola,FL,30.4738158,-87.1867049,"(30.473815800000001, -87.186704900000009)",Pensacola (FL)
245,14222,"Pago Pago, TT: Pago Pago International",Pago Pago International,Pago Pago,TT,-14.331389,-170.711389,"(-14.331389000000001, -170.711389)",Pago Pago (TT)
246,14252,"Pasco/Kennewick/Richland, WA: Tri Cities",Tri Cities,Pasco/Kennewick/Richland,WA,46.2349999,-119.2233014,"(46.234999899999998, -119.2233014)",Pasco/Kennewick/Richland (WA)
247,14254,"Ponce, PR: Mercedita",Mercedita,Ponce,PR,18.0138931,-66.5492297,"(18.013893100000001, -66.549229699999998)",Ponce (PR)
248,14256,"Petersburg, AK: Petersburg James A Johnson",Petersburg James A Johnson,Petersburg,AK,56.8016671,-132.9452781,"(56.801667099999996, -132.9452781)",Petersburg (AK)
249,14262,"Palm Springs, CA: Palm Springs International",Palm Springs International,Palm Springs,CA,33.8303194,-116.5070468,"(33.830319399999993, -116.50704679999998)",Palm Springs (CA)
250,14307,"Providence, RI: Theodore Francis Green State",Theodore Francis Green State,Providence,RI,41.7245271,-71.4304062,"(41.724527100000003, -71.430406200000007)",Providence (RI)
251,14321,"Portland, ME: Portland International Jetport",Portland International Jetport,Portland,ME,43.6464785,-70.3096974,"(43.646478500000001, -70.309697400000005)",Portland (ME)
252,14457,"Rapid City, SD: Rapid City Regional",Rapid City Regional,Rapid City,SD,44.0805434,-103.2310149,"(44.080543400000003, -103.23101490000001)",Rapid City (SD)
253,14487,"Redding, CA: Redding Municipal",Redding Municipal,Redding,CA,40.505498,-122.2998094,"(40.505497999999996, -122.2998094)",Redding (CA)
254,14489,"Bend/Redmond, OR: Roberts Field",Roberts Field,Bend/Redmond,OR,44.2539448,-121.1505531,"(44.253944799999999, -121.1505531)",Bend/Redmond (OR)
255,14492,"Raleigh/Durham, NC: Raleigh-Durham International",Raleigh-Durham International,Raleigh/Durham,NC,35.880079,-78.7879963,"(35.880078999999995, -78.787996300000003)",Raleigh/Durham (NC)
256,14520,"Rhinelander, WI: Rhinelander/Oneida County",Rhinelander/Oneida County,Rhinelander,WI,45.6366228,-89.4120753,"(45.636622799999998, -89.412075299999998)",Rhinelander (WI)
257,14524,"Richmond, VA: Richmond International",Richmond International,Richmond,VA,37.5065795,-77.3208112,"(37.506579500000001, -77.320811200000009)",Richmond (VA)
258,14543,"Rock Springs, WY: Rock Springs Sweetwater County",Rock Springs Sweetwater County,Rock Springs,WY,41.5874644,-109.2029043,"(41.587464399999995, -109.2029043)",Rock Springs (WY)
259,14570,"Reno, NV: Reno/Tahoe International",Reno/Tahoe International,Reno,NV,39.4995907,-119.7680951,"(39.499590699999999, -119.76809509999998)",Reno (NV)
260,14574,"Roanoke, VA: Roanoke Blacksburg Regional Woodrum Field",Roanoke Blacksburg Regional Woodrum Field,Roanoke,VA,37.3204427,-79.9703018,"(37.320442700000001, -79.970301799999987)",Roanoke (VA)
261,14576,"Rochester, NY: Greater Rochester International",Greater Rochester International,Rochester,NY,43.1225229,-77.6665722,"(43.1225229, -77.666572200000004)",Rochester (NY)
262,14588,"Roswell, NM: Roswell International Air Center",Roswell International Air Center,Roswell,NM,33.3067198,-104.5189261,"(33.306719800000003, -104.51892609999999)",Roswell (NM)
263,14633,"Rochester, MN: Rochester International",Rochester International,Rochester,MN,43.1225229,-77.6665722,"(43.1225229, -77.666572200000004)",Rochester (MN)
264,14635,"Fort Myers, FL: Southwest Florida International",Southwest Florida International,Fort Myers,FL,26.5337051,-81.7553083,"(26.533705100000002, -81.755308299999996)",Fort Myers (FL)
265,14674,"Santa Fe, NM: Santa Fe Municipal",Santa Fe Municipal,Santa Fe,NM,35.6869752,-105.937799,"(35.686975200000006, -105.937799)",Santa Fe (NM)
266,14679,"San Diego, CA: San Diego International",San Diego International,San Diego,CA,32.7338006,-117.1933038,"(32.733800600000002, -117.1933038)",San Diego (CA)
267,14683,"San Antonio, TX: San Antonio International",San Antonio International,San Antonio,TX,29.5311973,-98.4683484,"(29.531197299999999, -98.468348400000011)",San Antonio (TX)
268,14685,"Savannah, GA: Savannah/Hilton Head International",Savannah/Hilton Head International,Savannah,GA,32.1294267,-81.2018521,"(32.129426699999996, -81.201852099999996)",Savannah (GA)
269,14689,"Santa Barbara, CA: Santa Barbara Municipal",Santa Barbara Municipal,Santa Barbara,CA,34.4208305,-119.6981901,"(34.420830500000001, -119.69819009999999)",Santa Barbara (CA)
270,14696,"South Bend, IN: South Bend International",South Bend International,South Bend,IN,41.7008353,-86.3121986,"(41.700835299999994, -86.312198599999988)",South Bend (IN)
271,14698,"San Luis Obispo, CA: San Luis County Regional",San Luis County Regional,San Luis Obispo,CA,35.239314,-120.641239,"(35.239314, -120.64123899999998)",San Luis Obispo (CA)
272,14709,"Deadhorse, AK: Deadhorse Airport",Deadhorse Airport,Deadhorse,AK,70.1971592,-148.4610843,"(70.197159200000002, -148.46108430000001)",Deadhorse (AK)
273,14711,"State College, PA: University Park",University Park,State College,PA,32.8550377,-96.797592,"(32.855037699999997, -96.797592000000009)",State College (PA)
274,14730,"Louisville, KY: Louisville International-Standiford Field",Louisville International-Standiford Field,Louisville,KY,38.2526647,-85.7584557,"(38.252664700000004, -85.758455699999999)",Louisville (KY)
275,14747,"Seattle, WA: Seattle/Tacoma International",Seattle/Tacoma International,Seattle,WA,47.4502499,-122.3088165,"(47.450249900000003, -122.30881650000001)",Seattle (WA)
276,14771,"San Francisco, CA: San Francisco International",San Francisco International,San Francisco,CA,37.6213129,-122.3789554,"(37.621312899999992, -122.3789554)",San Francisco (CA)
277,14783,"Springfield, MO: Springfield-Branson National",Springfield-Branson National,Springfield,MO,37.238077,-93.397096,"(37.238077000000004, -93.397095999999991)",Springfield (MO)
278,14794,"St. George, UT: St George Regional",St George Regional,St. George,UT,37.0307872,-113.5089552,"(37.030787200000006, -113.50895520000002)",St. George (UT)
279,14814,"Shreveport, LA: Shreveport Regional",Shreveport Regional,Shreveport,LA,32.4544911,-93.8286552,"(32.454491100000006, -93.8286552)",Shreveport (LA)
280,14828,"Sitka, AK: Sitka Rocky Gutierrez",Sitka Rocky Gutierrez,Sitka,AK,57.0507099,-135.3648661,"(57.050709899999994, -135.36486609999997)",Sitka (AK)
281,14831,"San Jose, CA: Norman Y. Mineta San Jose International",Norman Y. Mineta San Jose International,San Jose,CA,37.3382082,-121.8863286,"(37.338208200000004, -121.88632859999998)",San Jose (CA)
282,14842,"San Angelo, TX: San Angelo Regional/Mathis Field",San Angelo Regional/Mathis Field,San Angelo,TX,31.3572911,-100.5031694,"(31.357291100000001, -100.5031694)",San Angelo (TX)
283,14843,"San Juan, PR: Luis Munoz Marin International",Luis Munoz Marin International,San Juan,PR,18.4373547,-66.0044727,"(18.4373547, -66.004472700000008)",San Juan (PR)
284,14869,"Salt Lake City, UT: Salt Lake City International",Salt Lake City International,Salt Lake City,UT,40.7899404,-111.9790706,"(40.789940399999999, -111.9790706)",Salt Lake City (UT)
285,14893,"Sacramento, CA: Sacramento International",Sacramento International,Sacramento,CA,38.6950854,-121.5900648,"(38.695085399999996, -121.59006480000001)",Sacramento (CA)
286,14905,"Santa Maria, CA: Santa Maria Public/Capt. G. Allan Hancock Field",Santa Maria Public/Capt. G. Allan Hancock Field,Santa Maria,CA,34.8991411,-120.4477733,"(34.899141100000001, -120.44777329999999)",Santa Maria (CA)
287,14908,"Santa Ana, CA: John Wayne Airport-Orange County",John Wayne Airport-Orange County,Santa Ana,CA,33.6761901,-117.8674759,"(33.676190099999999, -117.8674759)",Santa Ana (CA)
288,14952,"Springfield, IL: Abraham Lincoln Capital",Abraham Lincoln Capital,Springfield,IL,39.844101,-89.6779022,"(39.844101000000002, -89.677902200000005)",Springfield (IL)
289,14955,"Saipan, TT: Francisco C. Ada Saipan International",Francisco C. Ada Saipan International,Saipan,TT,15.1197429,145.7282789,"(15.1197429, 145.72827890000002)",Saipan (TT)
290,14960,"Wichita Falls, TX: Sheppard AFB/Wichita Falls Municipal",Sheppard AFB/Wichita Falls Municipal,Wichita Falls,TX,33.9137085,-98.4933873,"(33.913708500000006, -98.493387300000009)",Wichita Falls (TX)
291,14986,"Sarasota/Bradenton, FL: Sarasota/Bradenton International",Sarasota/Bradenton International,Sarasota/Bradenton,FL,27.3873477,-82.5534486,"(27.387347700000003, -82.553448599999996)",Sarasota/Bradenton (FL)
292,15016,"St. Louis, MO: Lambert-St. Louis International",Lambert-St. Louis International,St. Louis,MO,38.7431329,-90.3650945,"(38.743132899999999, -90.365094499999998)",St. Louis (MO)
293,15024,"Charlotte Amalie, VI: Cyril E King",Cyril E King,Charlotte Amalie,VI,18.3360608,-64.9722726,"(18.336060800000002, -64.972272599999997)",Charlotte Amalie (VI)
294,15027,"Christiansted, VI: Henry E. Rohlsen",Henry E. Rohlsen,Christiansted,VI,17.701287,-64.805797,"(17.701287000000001, -64.805796999999998)",Christiansted (VI)
295,15041,"Sun Valley/Hailey/Ketchum, ID: Friedman Memorial",Friedman Memorial,Sun Valley/Hailey/Ketchum,ID,43.5066901,-114.2992901,"(43.5066901, -114.29929009999998)",Sun Valley/Hailey/Ketchum (ID)
296,15048,"Sioux City, IA: Sioux Gateway/Col. Bud Day Field",Sioux Gateway/Col. Bud Day Field,Sioux City,IA,42.4025,-96.384167,"(42.402500000000003, -96.384167000000005)",Sioux City (IA)
297,15070,"Newburgh/Poughkeepsie, NY: Stewart International",Stewart International,Newburgh/Poughkeepsie,NY,41.4985635,-74.1004385,"(41.498563500000003, -74.100438499999996)",Newburgh/Poughkeepsie (NY)
298,15096,"Syracuse, NY: Syracuse Hancock International",Syracuse Hancock International,Syracuse,NY,43.1139301,-76.1101888,"(43.113930100000005, -76.110188799999989)",Syracuse (NY)
299,15249,"Tallahassee, FL: Tallahassee International",Tallahassee International,Tallahassee,FL,30.395743,-84.345124,"(30.395743, -84.345123999999998)",Tallahassee (FL)
300,15295,"Toledo, OH: Toledo Express",Toledo Express,Toledo,OH,41.5924755,-83.8060041,"(41.592475499999999, -83.806004099999996)",Toledo (OH)
301,15304,"Tampa, FL: Tampa International",Tampa International,Tampa,FL,27.9834776,-82.5370781,"(27.983477600000001, -82.537078100000002)",Tampa (FL)
302,15323,"Bristol/Johnson City/Kingsport, TN: Tri-Cities Regional TN/VA",Tri-Cities Regional TN/VA,Bristol/Johnson City/Kingsport,TN,36.48111,-82.40785,"(36.481110000000001, -82.407849999999996)",Bristol/Johnson City/Kingsport (TN)
303,15356,"Trenton, NJ: Trenton Mercer",Trenton Mercer,Trenton,NJ,40.277031,-74.8180489,"(40.277031000000001, -74.818048900000008)",Trenton (NJ)
304,15370,"Tulsa, OK: Tulsa International",Tulsa International,Tulsa,OK,36.198778,-95.8838659,"(36.198778000000004, -95.883865900000004)",Tulsa (OK)
305,15376,"Tucson, AZ: Tucson International",Tucson International,Tucson,AZ,32.1145102,-110.9392269,"(32.114510199999998, -110.93922690000001)",Tucson (AZ)
306,15380,"Traverse City, MI: Cherry Capital",Cherry Capital,Traverse City,MI,44.7369137,-85.5796208,"(44.736913700000002, -85.579620800000001)",Traverse City (MI)
307,15389,"Twin Falls, ID: Joslin Field - Magic Valley Regional",Joslin Field - Magic Valley Regional,Twin Falls,ID,42.5629668,-114.4608711,"(42.562966799999998, -114.46087109999999)",Twin Falls (ID)
308,15401,"Texarkana, AR: Texarkana Regional-Webb Field",Texarkana Regional-Webb Field,Texarkana,AR,33.4568777,-93.9941485,"(33.4568777, -93.994148499999994)",Texarkana (AR)
309,15411,"Tyler, TX: Tyler Pounds Regional",Tyler Pounds Regional,Tyler,TX,32.3511258,-95.4096293,"(32.351125800000005, -95.409629299999992)",Tyler (TX)
310,15412,"Knoxville, TN: McGhee Tyson",McGhee Tyson,Knoxville,TN,35.810833,-83.993889,"(35.810833000000002, -83.993888999999996)",Knoxville (TN)
311,15497,"St. Augustine, FL: Northeast Florida Regional",Northeast Florida Regional,St. Augustine,FL,29.9543518,-81.3429353,"(29.954351799999998, -81.342935299999994)",St. Augustine (FL)
312,15607,"Valdosta, GA: Valdosta Regional",Valdosta Regional,Valdosta,GA,30.785034,-83.27651,"(30.785034000000003, -83.276510000000002)",Valdosta (GA)
313,15624,"Valparaiso, FL: Eglin AFB Destin Fort Walton Beach",Eglin AFB Destin Fort Walton Beach,Valparaiso,FL,30.495438,-86.549817,"(30.495438, -86.549817000000004)",Valparaiso (FL)
314,15841,"Wrangell, AK: Wrangell Airport",Wrangell Airport,Wrangell,AK,56.4850237,-132.3795998,"(56.485023700000006, -132.37959979999999)",Wrangell (AK)
315,15897,"West Yellowstone, MT: Yellowstone",Yellowstone,West Yellowstone,MT,44.427963,-110.588455,"(44.427962999999998, -110.58845500000001)",West Yellowstone (MT)
316,15919,"Fayetteville, AR: Northwest Arkansas Regional",Northwest Arkansas Regional,Fayetteville,AR,36.2786587,-94.304294,"(36.278658700000008, -94.304293999999999)",Fayetteville (AR)
317,15991,"Yakutat, AK: Yakutat Airport",Yakutat Airport,Yakutat,AK,59.509167,-139.65973,"(59.509167000000005, -139.65973)",Yakutat (AK)
318,16218,"Yuma, AZ: Yuma MCAS/Yuma International",Yuma MCAS/Yuma International,Yuma,AZ,32.6926512,-114.6276916,"(32.6926512, -114.62769159999999)",Yuma (AZ)
